"№";"Наименование объекта";"Адрес";"Контактный телефон";"Режим работы";"Дополнительные виды услуг в сфере торгового обслуживания";"long";"lat"
"1";"Аптека Бета Здоровье""""";"п.Уренгой, 3-й мкр., д. 19 а";"8 (34934) 9-14-48";"ежедневно с 09-00 до 21-00";"POS-терминал для расчетов платежными картами проект Забота""- скидка 10 %""";"78.376886";"65.960942"
"2";"Аптека Бета Здоровье""""";"п.Уренгой, 2 мкр.,  17а";"8 (34934) 9-19-70";"ежедневно с 09-00 до 21-00";"POS-терминал для расчетов платежными картами проект Забота""- скидка 10 %""";"78.371307";"65.957549"
"3";"Аптека Бережная""""";"п.Уренгой, 4-й мкр., д. 40";"8 (34934) 9-10-59";"ежедневно с 08-00 до 22-00";"POS-терминал для расчетов платежными картами";"78.37676";"65.962176"
"4";"Аптека Пилюля""""";"п.Уренгой, 5-й мкр., д. 37а";"";"пн-сб с 09-00 до 22-00                            вс с 11-00 до 22-00";"POS-терминал для расчетов платежными картами";"78.381144";"65.961543"
"5";"Аптека ООО Империя";"п.Уренгой, 5-й мкр., д. 37а";"";"ежедневно с 09-00 до 22-00";"POS-терминал для расчетов платежными картами";"78.381144";"65.961543"
"6";"Аптека Шифарма""""";"п. Уренгой, 4 мкр., 17";"+7(929)235-35-79";"ежедневно c 09-00 до 21-00";"POS-терминал для расчетов платежными картами";"78.378134";"65.966953"
"7";"Аптека  Шифарма""""";"п. Уренгой, ул.   Геологов д. 31а";"+7(929)235-35-79";"ежедневно c 09-00 до 21-00";"POS-терминал для расчетов платежными картами";"78.36492";"65.961843"
